t,manoeuvre,distance,aspect angle,pitch,ideal pitch,roll,heading,ideal heading,angle of attack,sideslip angle,yoke pitch ratio,yoke roll ratio,throttle ratio,kias,stall warning,has crashed,Δt,pitch dev,heading dev,d rate,in front of or behind enemy plane,pitch dev grade,heading dev grade
0.0,before enemy aircraft starts manoeuvre,376.46144091372616 metres,2.72,3.33,-0.59,-0.13,42.83,43.87,3.05,-0.07,0.0,0.0,0.5,83.29,0,0,0.12,3.91,-1.04,1.25,behind,might lose sight of enemy,good
0.11,before enemy aircraft starts manoeuvre,376.6151092640256 metres,2.64,3.35,-0.64,-0.14,42.82,43.87,3.06,-0.07,0.0,0.0,0.5,83.61,0,0,0.11,4.0,-1.05,1.34,behind,might lose sight of enemy,good
0.22,before enemy aircraft starts manoeuvre,376.7714155107485 metres,2.56,3.38,-0.69,-0.14,42.82,43.87,3.06,-0.07,0.0,0.0,0.5,83.85,0,0,0.11,4.07,-1.05,1.45,behind,might lose sight of enemy,good
0.33,before enemy aircraft starts manoeuvre,376.91506551695903 metres,2.49,3.4,-0.74,-0.15,42.81,43.87,3.06,-0.07,0.0,0.0,0.5,84.01,0,0,0.1,4.14,-1.06,1.37,behind,might lose sight of enemy,good
0.44,before enemy aircraft starts manoeuvre,377.0852855450552 metres,2.41,3.42,-0.79,-0.25,42.8,43.87,3.07,-0.07,0.0,0.0,0.5,84.16,0,0,0.11,4.21,-1.06,1.57,behind,might lose sight of enemy,good
0.55,before enemy aircraft starts manoeuvre,377.2517187807195 metres,2.34,3.44,-0.84,-0.52,42.79,43.87,3.09,-0.06,0.0,0.0,0.5,84.26,0,0,0.11,4.28,-1.08,1.48,behind,might lose sight of enemy,good
0.66,before enemy aircraft starts manoeuvre,377.4441926823916 metres,2.26,3.46,-0.89,-1.07,42.76,43.87,3.13,-0.04,0.0,0.0,0.5,84.33,0,0,0.11,4.35,-1.1,1.78,behind,might lose sight of enemy,good
0.77,before enemy aircraft starts manoeuvre,377.6462652883169 metres,2.19,3.47,-0.95,-1.79,42.72,43.87,3.17,-0.02,0.0,0.0,0.5,84.38,0,0,0.12,4.42,-1.15,1.71,behind,might lose sight of enemy,good
0.88,before enemy aircraft starts manoeuvre,377.8309019449456 metres,2.12,3.48,-0.99,-2.64,42.66,43.87,3.2,0.01,0.0,0.0,0.5,84.4,0,0,0.11,4.47,-1.21,1.75,behind,might lose sight of enemy,good
0.98,before enemy aircraft starts manoeuvre,378.0307866543333 metres,2.06,3.48,-1.04,-3.78,42.56,43.87,3.25,0.04,0.0,0.0,0.5,84.4,0,0,0.1,4.52,-1.3,1.94,behind,might lose sight of enemy,good
1.09,before enemy aircraft starts manoeuvre,378.2201798121065 metres,2.0,3.46,-1.08,-5.06,42.44,43.87,3.29,0.06,0.0,0.0,0.5,84.38,0,0,0.1,4.54,-1.42,1.81,behind,might lose sight of enemy,good
1.19,before enemy aircraft starts manoeuvre,378.4192912672349 metres,1.95,3.43,-1.12,-6.57,42.28,43.87,3.34,0.09,0.0,0.0,0.5,84.36,0,0,0.1,4.55,-1.59,1.92,behind,might lose sight of enemy,good
1.29,before enemy aircraft starts manoeuvre,378.6263549848334 metres,1.9,3.38,-1.16,-8.3,42.07,43.87,3.37,0.12,0.0,0.0,0.5,84.32,0,0,0.1,4.54,-1.79,2.01,behind,might lose sight of enemy,good
1.41,before enemy aircraft starts manoeuvre,378.8472566317543 metres,1.85,3.29,-1.2,-10.28,41.81,43.87,3.41,0.14,0.0,0.0,0.5,84.27,0,0,0.11,4.49,-2.06,1.99,behind,might lose sight of enemy,good
1.51,before enemy aircraft starts manoeuvre,379.0759602488377 metres,1.81,3.17,-1.24,-12.45,41.5,43.88,3.43,0.16,0.0,0.0,0.5,84.22,0,0,0.11,4.4,-2.38,2.14,behind,might lose sight of enemy,good
1.62,before enemy aircraft starts manoeuvre,379.2990285312976 metres,1.78,3.0,-1.27,-14.64,41.16,43.89,3.43,0.18,0.0,0.0,0.5,84.16,0,0,0.1,4.27,-2.73,2.14,behind,might lose sight of enemy,good
1.72,before enemy aircraft starts manoeuvre,379.5320341851356 metres,1.75,2.78,-1.3,-17.06,40.77,43.9,3.41,0.19,0.0,0.0,0.5,84.09,0,0,0.1,4.08,-3.13,2.32,behind,might lose sight of enemy,good
1.83,before enemy aircraft starts manoeuvre,379.7942483726219 metres,1.73,2.47,-1.33,-19.95,40.29,43.92,3.38,0.2,0.0,0.0,0.5,84.02,0,0,0.11,3.8,-3.63,2.29,behind,might lose sight of enemy,good
1.94,before enemy aircraft starts manoeuvre,380.04840523644856 metres,1.73,2.09,-1.35,-22.82,39.81,43.94,3.31,0.21,0.0,0.0,0.5,83.94,0,0,0.11,3.44,-4.13,2.28,behind,might lose sight of enemy,good
2.05,before enemy aircraft starts manoeuvre,380.3100704051094 metres,1.73,1.62,-1.37,-25.79,39.31,43.97,3.22,0.22,0.0,0.0,0.5,83.87,0,0,0.11,2.99,-4.66,2.48,behind,good,good
2.16,before enemy aircraft starts manoeuvre,380.57005775795136 metres,1.75,1.11,-1.38,-28.7,38.79,44.0,3.13,0.22,0.0,0.0,0.5,83.8,0,0,0.11,2.5,-5.22,2.38,behind,good,ok
2.26,before enemy aircraft starts manoeuvre,380.84069793082205 metres,1.77,0.65,-1.39,-31.69,38.31,44.04,0.89,-1.0,0.0,0.0,0.5,83.73,0,0,0.11,2.04,-5.73,2.57,behind,good,ok
2.38,before enemy aircraft starts manoeuvre,381.12285261422767 metres,1.82,0.36,-1.39,-34.65,38.0,44.09,0.09,-1.17,0.0,0.0,0.5,83.68,0,0,0.12,1.75,-6.09,2.42,behind,good,ok
2.48,before enemy aircraft starts manoeuvre,381.38235041699926 metres,1.87,0.26,-1.38,-37.09,37.82,44.14,-0.3,-1.0,0.0,0.0,0.5,83.64,0,0,0.1,1.63,-6.32,2.5,behind,good,ok
2.59,before enemy aircraft starts manoeuvre,381.64280940670227 metres,1.93,0.27,-1.36,-39.12,37.65,44.19,-0.44,-0.64,0.0,0.0,0.5,83.61,0,0,0.1,1.63,-6.54,2.48,behind,good,ok
2.7,before enemy aircraft starts manoeuvre,381.93914198837933 metres,2.01,0.4,-1.34,-40.81,37.34,44.26,-0.34,-0.15,0.0,0.0,0.5,83.59,0,0,0.11,1.73,-6.92,2.65,behind,good,ok
2.82,before enemy aircraft starts manoeuvre,382.18472243233185 metres,2.08,0.54,-1.31,-41.75,36.95,44.32,-0.1,0.18,0.0,0.0,0.5,83.57,0,0,0.12,1.85,-7.37,2.12,behind,good,ok
2.93,before enemy aircraft starts manoeuvre,382.5884995182537 metres,2.22,0.77,-1.26,-42.16,36.02,44.43,0.64,0.66,0.0,0.0,0.5,83.56,0,0,0.12,2.02,-8.41,3.47,behind,good,ok
3.05,before enemy aircraft starts manoeuvre,382.93935059701397 metres,2.35,0.88,-1.2,-41.2,35.01,44.53,1.53,0.92,0.0,0.0,0.5,83.55,0,0,0.12,2.08,-9.52,2.89,behind,good,ok
3.17,before enemy aircraft starts manoeuvre,383.30607581059775 metres,2.5,0.87,-1.14,-38.84,33.86,44.65,2.57,1.01,0.0,0.0,0.5,83.53,0,0,0.12,2.01,-10.78,3.14,behind,good,ok
3.28,before enemy aircraft starts manoeuvre,383.64005700339163 metres,2.64,0.77,-1.08,-35.62,32.84,44.76,3.54,0.94,0.0,0.0,0.5,83.51,0,0,0.11,1.85,-11.92,3.13,behind,good,ok
3.38,before enemy aircraft starts manoeuvre,383.95945494803783 metres,2.79,0.61,-1.03,-31.9,31.94,44.87,4.46,0.75,0.0,0.0,0.5,83.49,0,0,0.1,1.64,-12.93,3.12,behind,good,ok
3.48,before enemy aircraft starts manoeuvre,384.30926126230116 metres,2.94,0.36,-0.97,-27.36,31.1,45.0,5.39,0.45,0.0,0.0,0.5,83.44,0,0,0.1,1.34,-13.89,3.37,behind,good,ok
3.59,before enemy aircraft starts manoeuvre,384.6664060290318 metres,3.11,0.06,-0.92,-22.46,30.42,45.13,6.26,0.11,0.0,0.0,0.5,83.39,0,0,0.1,0.98,-14.71,3.41,behind,good,ok
3.69,before enemy aircraft starts manoeuvre,385.0311963473244 metres,3.29,-0.31,-0.87,-17.4,29.91,45.27,6.89,-0.27,0.0,0.0,0.5,83.32,0,0,0.1,0.56,-15.37,3.51,behind,good,ok
3.81,before enemy aircraft starts manoeuvre,385.4653131209358 metres,3.5,-0.86,-0.82,-11.61,29.54,45.45,7.43,-0.76,0.0,0.0,0.5,83.23,0,0,0.12,-0.05,-15.9,3.55,behind,good,ok
3.93,before enemy aircraft starts manoeuvre,385.8821605696033 metres,3.71,-1.54,-0.78,-6.72,29.42,45.62,7.24,-1.1,0.0,0.0,0.5,83.15,0,0,0.11,-0.76,-16.2,3.72,behind,good,ok
4.04,before enemy aircraft starts manoeuvre,386.2837566955703 metres,3.92,-2.34,-0.74,-3.62,29.45,45.79,6.6,-1.16,0.0,0.0,0.5,83.08,0,0,0.11,-1.6,-16.34,3.67,behind,good,ok
4.15,before enemy aircraft starts manoeuvre,386.6739209493084 metres,4.12,-3.24,-0.71,-2.77,29.53,45.96,5.53,-0.93,0.0,0.0,0.5,83.05,0,0,0.11,-2.53,-16.43,3.41,behind,good,ok
4.26,before enemy aircraft starts manoeuvre,387.0590993264418 metres,4.34,-4.22,-0.68,-4.02,29.58,46.13,3.73,-0.59,0.0,0.0,0.5,83.07,0,0,0.11,-3.54,-16.55,3.53,behind,might lose sight of enemy,ok
4.38,enemy aircraft turning right,387.4518603352622 metres,4.57,-5.28,-0.65,-6.89,29.58,46.31,-1.29,-0.49,0.0,0.0,0.5,83.14,0,0,0.12,-4.63,-16.73,3.35,behind,might lose sight of enemy,ok
4.48,enemy aircraft turning right,387.7956526596466 metres,4.76,-6.04,-0.61,-10.1,29.6,46.47,-1.63,-0.5,0.0,0.0,0.5,83.23,0,0,0.11,-5.43,-16.87,3.21,behind,might lose sight of enemy,ok
4.59,enemy aircraft turning right,388.1511470095721 metres,4.92,-6.45,-0.57,-13.27,29.61,46.63,-1.47,-0.42,0.0,0.0,0.5,83.34,0,0,0.11,-5.88,-17.02,3.32,behind,might lose sight of enemy,ok
4.69,enemy aircraft turning right,388.517895604463 metres,5.04,-6.37,-0.51,-15.58,29.54,46.81,-0.77,-0.22,0.0,0.0,0.5,83.48,0,0,0.1,-5.86,-17.27,3.59,behind,might lose sight of enemy,ok
4.8,enemy aircraft turning right,388.86847074196976 metres,5.14,-5.94,-0.44,-16.67,29.34,46.97,0.16,-0.0,0.0,0.0,0.5,83.61,0,0,0.1,-5.5,-17.63,3.35,behind,might lose sight of enemy,ok
4.92,enemy aircraft turning right,389.2574313580137 metres,5.24,-5.26,-0.35,-17.01,28.97,47.16,1.24,0.19,0.0,0.0,0.5,83.78,0,0,0.12,-4.91,-18.19,3.2,behind,might lose sight of enemy,ok
5.04,enemy aircraft turning right,389.65389531484135 metres,5.34,-4.53,-0.25,-17.07,28.48,47.36,2.21,0.3,0.0,0.0,0.5,83.95,0,0,0.12,-4.28,-18.88,3.37,behind,might lose sight of enemy,ok
5.15,enemy aircraft turning right,390.03964190033645 metres,5.45,-3.9,-0.13,-17.05,27.94,47.57,2.93,0.32,0.0,0.0,0.5,84.11,0,0,0.11,-3.77,-19.63,3.46,behind,might lose sight of enemy,ok
5.27,enemy aircraft turning right,390.40765084544944 metres,5.56,-3.47,-0.02,-17.04,27.41,47.77,3.36,0.28,0.0,0.0,0.5,84.26,0,0,0.12,-3.45,-20.36,3.1,behind,might lose sight of enemy,might lose sight of enemy
5.39,enemy aircraft turning right,390.8029932908538 metres,5.67,-3.2,0.12,-17.06,26.86,48.0,3.57,0.2,0.0,0.0,0.5,84.41,0,0,0.12,-3.32,-21.14,3.3,behind,might lose sight of enemy,might lose sight of enemy
5.51,enemy aircraft turning right,391.1886637835889 metres,5.78,-3.11,0.26,-17.1,26.36,48.23,3.58,0.12,0.0,0.0,0.5,84.56,0,0,0.12,-3.36,-21.87,3.21,behind,might lose sight of enemy,might lose sight of enemy
5.61,enemy aircraft turning right,391.5585568373824 metres,5.86,-3.14,0.39,-17.15,25.92,48.46,3.47,0.05,0.0,0.0,0.5,84.69,0,0,0.11,-3.53,-22.54,3.46,behind,might lose sight of enemy,might lose sight of enemy
5.73,enemy aircraft turning right,391.93420498187385 metres,5.92,-3.24,0.53,-17.21,25.52,48.71,3.31,-0.0,0.0,0.0,0.5,84.82,0,0,0.12,-3.77,-23.19,3.16,behind,might lose sight of enemy,might lose sight of enemy
5.85,enemy aircraft turning right,392.33353731867373 metres,5.96,-3.37,0.69,-17.27,25.13,48.98,3.14,-0.03,0.0,0.0,0.5,84.95,0,0,0.12,-4.06,-23.85,3.32,behind,might lose sight of enemy,might lose sight of enemy
5.97,enemy aircraft turning right,392.7302613442576 metres,5.97,-3.5,0.85,-17.33,24.76,49.25,2.99,-0.04,0.0,0.0,0.5,85.08,0,0,0.12,-4.35,-24.5,3.31,behind,might lose sight of enemy,might lose sight of enemy
6.08,enemy aircraft turning right,393.1284042834767 metres,5.95,-3.61,1.01,-17.39,24.4,49.54,2.88,-0.04,0.0,0.0,0.5,85.22,0,0,0.11,-4.62,-25.14,3.58,behind,might lose sight of enemy,might lose sight of enemy
6.2,enemy aircraft turning right,393.5070488382562 metres,5.91,-3.68,1.16,-17.43,24.07,49.82,2.82,-0.02,0.0,0.0,0.5,85.34,0,0,0.11,-4.84,-25.75,3.36,behind,might lose sight of enemy,might lose sight of enemy
6.3,enemy aircraft turning right,393.85949892340807 metres,5.84,-3.72,1.31,-17.47,23.77,50.09,2.79,-0.0,0.0,0.0,0.5,85.45,0,0,0.1,-5.03,-26.32,3.4,behind,might lose sight of enemy,might lose sight of enemy
6.41,enemy aircraft turning right,394.2729245954336 metres,5.74,-3.74,1.48,-17.51,23.41,50.41,2.78,0.02,0.0,0.0,0.5,85.59,0,0,0.11,-5.22,-27.0,3.62,behind,might lose sight of enemy,might lose sight of enemy
6.53,enemy aircraft turning right,394.65043843532277 metres,5.62,-3.74,1.64,-17.54,23.08,50.71,2.79,0.03,0.0,0.0,0.5,85.7,0,0,0.11,-5.38,-27.63,3.41,behind,might lose sight of enemy,might lose sight of enemy
6.64,enemy aircraft turning right,394.98536757764924 metres,5.5,-3.73,1.78,-17.57,22.78,50.98,2.81,0.04,0.0,0.0,0.5,85.81,0,0,0.11,-5.51,-28.2,2.94,behind,might lose sight of enemy,might lose sight of enemy
6.75,enemy aircraft turning right,395.50413169822224 metres,5.28,-3.7,2.0,-17.61,22.33,51.4,2.83,0.05,0.0,0.0,0.5,85.96,0,0,0.11,-5.7,-29.07,4.86,behind,might lose sight of enemy,might lose sight of enemy
6.85,enemy aircraft turning right,395.897499639523 metres,5.1,-3.68,2.16,-17.64,21.99,51.73,2.85,0.05,0.0,0.0,0.5,86.07,0,0,0.1,-5.84,-29.74,3.83,behind,might lose sight of enemy,might lose sight of enemy
6.96,enemy aircraft turning right,396.35774414438237 metres,4.86,-3.66,2.34,-17.68,21.6,52.11,2.87,0.05,0.0,0.0,0.5,86.19,0,0,0.11,-6.0,-30.51,4.06,behind,might lose sight of enemy,lost sight of enemy
7.08,enemy aircraft turning right,396.84326642615633 metres,4.59,-3.64,2.52,-17.71,21.2,52.51,2.87,0.05,0.0,0.0,0.5,86.32,0,0,0.12,-6.16,-31.31,4.19,behind,might lose sight of enemy,lost sight of enemy
7.2,enemy aircraft turning right,397.356897909202 metres,4.29,-3.62,2.72,-17.75,20.8,52.94,2.87,0.04,0.0,0.0,0.5,86.45,0,0,0.12,-6.33,-32.14,4.37,behind,might lose sight of enemy,lost sight of enemy
7.31,enemy aircraft turning right,397.88441763427954 metres,3.98,-3.6,2.9,-17.79,20.4,53.38,2.87,0.04,0.0,0.0,0.5,86.57,0,0,0.12,-6.5,-32.98,4.53,behind,might lose sight of enemy,lost sight of enemy
7.42,enemy aircraft turning right,398.38432036420886 metres,3.7,-3.58,3.07,-17.82,20.04,53.79,2.87,0.04,0.0,0.0,0.5,86.68,0,0,0.11,-6.66,-33.75,4.66,behind,might lose sight of enemy,lost sight of enemy
7.54,enemy aircraft turning right,398.96185586857877 metres,3.39,-3.57,3.26,-17.86,19.65,54.26,2.86,0.04,0.0,0.0,0.5,86.8,0,0,0.12,-6.82,-34.62,4.86,behind,might lose sight of enemy,lost sight of enemy
7.65,enemy aircraft turning right,399.5505744775834 metres,3.11,-3.55,3.44,-17.9,19.26,54.74,2.85,0.04,0.0,0.0,0.5,86.92,0,0,0.11,-6.99,-35.48,5.35,behind,might lose sight of enemy,lost sight of enemy
7.77,enemy aircraft turning right,400.1844297336449 metres,2.84,-3.53,3.62,-17.94,18.87,55.24,2.84,0.04,0.0,0.0,0.5,87.04,0,0,0.12,-7.15,-36.37,5.35,behind,might lose sight of enemy,lost sight of enemy
7.88,enemy aircraft turning right,400.9073056800102 metres,2.57,-3.5,3.82,-17.98,18.45,55.8,2.84,0.04,0.0,0.0,0.5,87.17,0,0,0.12,-7.32,-37.36,6.14,behind,might lose sight of enemy,lost sight of enemy
8.0,enemy aircraft turning right,401.6099462618597 metres,2.36,-3.48,3.99,-18.02,18.05,56.34,2.83,0.04,0.0,0.0,0.5,87.28,0,0,0.12,-7.47,-38.28,6.07,behind,might lose sight of enemy,lost sight of enemy
8.11,enemy aircraft turning right,402.36098548860116 metres,2.19,-3.45,4.17,-18.06,17.66,56.89,2.83,0.04,0.0,0.0,0.5,87.4,0,0,0.12,-7.62,-39.24,6.53,behind,might lose sight of enemy,lost sight of enemy
8.23,enemy aircraft turning right,403.14653445841674 metres,2.08,-3.41,4.34,-18.1,17.26,57.46,2.82,0.04,0.0,0.0,0.5,87.51,0,0,0.12,-7.76,-40.2,6.82,behind,might lose sight of enemy,lost sight of enemy
8.35,enemy aircraft turning right,403.99752295261425 metres,2.04,-3.38,4.51,-18.14,16.85,58.05,2.82,0.04,0.0,0.0,0.5,87.63,0,0,0.12,-7.89,-41.2,7.26,behind,might lose sight of enemy,lost sight of enemy
8.45,enemy aircraft turning right,404.7492294664219 metres,2.06,-3.35,4.65,-18.17,16.51,58.57,2.82,0.05,0.0,0.0,0.5,87.73,0,0,0.1,-8.0,-42.05,7.49,behind,lost sight of enemy,lost sight of enemy
8.55,enemy aircraft turning right,405.58418204496746 metres,2.14,-3.32,4.8,-18.2,16.15,59.12,2.81,0.05,0.0,0.0,0.5,87.83,0,0,0.1,-8.12,-42.97,8.04,behind,lost sight of enemy,lost sight of enemy
8.66,enemy aircraft turning right,406.4516694675727 metres,2.28,-3.28,4.94,-18.24,15.79,59.68,2.81,0.05,0.0,0.0,0.5,87.93,0,0,0.1,-8.22,-43.89,8.33,behind,lost sight of enemy,lost sight of enemy
8.76,enemy aircraft turning right,407.37277325541413 metres,2.46,-3.24,5.08,-18.27,15.43,60.25,2.81,0.05,0.0,0.0,0.5,88.03,0,0,0.1,-8.32,-44.83,8.87,behind,lost sight of enemy,lost sight of enemy
8.88,enemy aircraft turning right,408.50642231428805 metres,2.71,-3.2,5.24,-18.32,15.0,60.94,2.81,0.05,0.0,0.0,0.5,88.14,0,0,0.12,-8.44,-45.94,9.46,behind,lost sight of enemy,lost sight of enemy
9.0,enemy aircraft turning right,409.6918843404795 metres,3.0,-3.15,5.39,-18.36,14.58,61.64,2.8,0.05,0.0,0.0,0.5,88.25,0,0,0.12,-8.54,-47.06,9.78,behind,lost sight of enemy,lost sight of enemy
9.11,enemy aircraft turning right,410.8118577708253 metres,3.27,-3.11,5.52,-18.39,14.2,62.27,2.8,0.05,0.0,0.0,0.5,88.35,0,0,0.11,-8.63,-48.07,10.25,behind,lost sight of enemy,lost sight of enemy
9.21,enemy aircraft turning right,411.94806541947395 metres,3.56,-3.07,5.64,-18.43,13.84,62.89,2.8,0.05,0.0,0.0,0.5,88.44,0,0,0.1,-8.71,-49.05,11.11,behind,lost sight of enemy,lost sight of enemy
9.32,enemy aircraft turning right,413.18990792673503 metres,3.86,-3.02,5.76,-18.47,13.46,63.55,2.8,0.05,0.0,0.0,0.5,88.54,0,0,0.11,-8.78,-50.09,11.51,behind,lost sight of enemy,lost sight of enemy
9.44,enemy aircraft turning right,414.68115851523964 metres,4.22,-2.97,5.89,-18.51,13.02,64.31,2.79,0.05,0.0,0.0,0.5,88.64,0,0,0.12,-8.86,-51.29,12.44,behind,lost sight of enemy,lost sight of enemy
9.54,enemy aircraft turning right,415.9832853546527 metres,4.52,-2.92,6.0,-18.55,12.66,64.95,2.79,0.05,0.0,0.0,0.5,88.73,0,0,0.1,-8.92,-52.29,12.65,behind,lost sight of enemy,lost sight of enemy
9.65,enemy aircraft turning right,417.39675485219055 metres,4.83,-2.87,6.1,-18.58,12.28,65.63,2.79,0.05,0.0,0.0,0.5,88.82,0,0,0.1,-8.98,-53.34,13.46,behind,lost sight of enemy,lost sight of enemy
9.75,enemy aircraft turning right,418.89992542288184 metres,5.15,-2.82,6.2,-18.62,11.9,66.32,2.79,0.05,0.0,0.0,0.5,88.91,0,0,0.1,-9.03,-54.42,14.67,behind,lost sight of enemy,lost sight of enemy
9.87,enemy aircraft turning right,420.6292639866099 metres,5.5,-2.77,6.3,-18.67,11.49,67.09,2.78,0.05,0.0,0.0,0.5,89.0,0,0,0.12,-9.07,-55.61,14.48,behind,lost sight of enemy,lost sight of enemy
9.98,enemy aircraft turning right,422.41338780248805 metres,5.85,-2.71,6.4,-18.71,11.07,67.86,2.78,0.05,0.0,0.0,0.5,89.09,0,0,0.11,-9.11,-56.79,15.6,behind,lost sight of enemy,lost sight of enemy
10.1,enemy aircraft turning right,424.2927510354508 metres,6.2,-2.65,6.49,-18.75,10.66,68.64,2.78,0.05,0.0,0.0,0.5,89.18,0,0,0.11,-9.14,-57.98,16.37,behind,lost sight of enemy,lost sight of enemy
10.21,enemy aircraft turning right,426.26939419036415 metres,6.55,-2.59,6.57,-18.79,10.24,69.42,2.78,0.05,0.0,0.0,0.5,89.27,0,0,0.11,-9.16,-59.18,17.19,behind,lost sight of enemy,lost sight of enemy
10.33,enemy aircraft turning right,428.3865005011106 metres,6.91,-2.53,6.64,-18.84,9.82,70.24,2.77,0.05,0.0,0.0,0.5,89.36,0,0,0.12,-9.18,-60.42,17.78,behind,lost sight of enemy,lost sight of enemy
10.45,enemy aircraft turning right,430.63181726482316 metres,7.27,-2.47,6.71,-18.88,9.39,71.06,2.77,0.05,0.0,0.0,0.5,89.45,0,0,0.12,-9.18,-61.68,18.95,behind,lost sight of enemy,lost sight of enemy
10.55,enemy aircraft turning right,432.65054906089637 metres,7.58,-2.42,6.77,-18.92,9.02,71.78,2.77,0.05,0.0,0.0,0.5,89.52,0,0,0.1,-9.18,-62.77,19.67,behind,lost sight of enemy,lost sight of enemy
10.66,enemy aircraft turning right,434.7893346037812 metres,7.9,-2.36,6.82,-18.96,8.64,72.52,2.77,0.06,0.0,0.0,0.5,89.59,0,0,0.1,-9.17,-63.88,20.62,behind,lost sight of enemy,lost sight of enemy
10.76,enemy aircraft turning right,437.0200269182071 metres,8.21,-2.3,6.86,-19.0,8.26,73.26,2.77,0.06,0.0,0.0,0.5,89.66,0,0,0.1,-9.16,-65.0,21.78,behind,lost sight of enemy,lost sight of enemy
10.88,enemy aircraft turning right,439.6796059246897 metres,8.58,-2.23,6.9,-19.05,7.82,74.12,2.76,0.06,0.0,0.0,0.5,89.74,0,0,0.12,-9.14,-66.29,22.2,behind,lost sight of enemy,lost sight of enemy
10.98,enemy aircraft turning right,442.0368475273133 metres,8.89,-2.18,6.93,-19.09,7.45,74.85,2.76,0.06,0.0,0.0,0.5,89.8,0,0,0.1,-9.11,-67.4,23.38,behind,lost sight of enemy,lost sight of enemy
11.09,enemy aircraft turning right,444.5569345071766 metres,9.21,-2.12,6.96,-19.13,7.07,75.6,2.76,0.06,0.0,0.0,0.5,89.87,0,0,0.11,-9.08,-68.54,23.76,behind,lost sight of enemy,lost sight of enemy
11.19,enemy aircraft turning right,447.2562699395194 metres,9.54,-2.05,6.98,-19.17,6.67,76.39,2.76,0.06,0.0,0.0,0.5,89.93,0,0,0.11,-9.03,-69.72,25.5,behind,lost sight of enemy,lost sight of enemy
11.3,enemy aircraft turning right,449.9117033170693 metres,9.85,-1.99,6.99,-19.22,6.29,77.13,2.76,0.06,0.0,0.0,0.5,89.99,0,0,0.11,-8.99,-70.84,25.07,behind,lost sight of enemy,lost sight of enemy
11.4,enemy aircraft turning right,452.8590967027799 metres,10.19,-1.93,7.0,-19.26,5.89,77.93,2.76,0.06,0.0,0.0,0.5,90.06,0,0,0.11,-8.93,-72.04,27.75,behind,lost sight of enemy,lost sight of enemy
11.51,enemy aircraft turning right,455.69409495098967 metres,10.5,-1.87,7.0,-19.3,5.51,78.67,2.76,0.06,0.0,0.0,0.5,90.11,0,0,0.1,-8.87,-73.16,28.13,behind,lost sight of enemy,lost sight of enemy
11.61,enemy aircraft turning right,458.63495337259354 metres,10.82,-1.81,7.0,-19.35,5.13,79.42,2.76,0.06,0.0,0.0,0.5,90.17,0,0,0.1,-8.81,-74.29,28.78,behind,lost sight of enemy,lost sight of enemy
11.71,enemy aircraft turning right,461.7011774409749 metres,11.14,-1.75,6.99,-19.39,4.75,80.17,2.75,0.06,0.0,0.0,0.5,90.22,0,0,0.1,-8.74,-75.42,29.96,behind,lost sight of enemy,lost sight of enemy
11.81,enemy aircraft turning right,464.86313661166156 metres,11.46,-1.69,6.98,-19.43,4.37,80.92,2.75,0.06,0.0,0.0,0.5,90.27,0,0,0.1,-8.66,-76.56,30.88,behind,lost sight of enemy,lost sight of enemy
11.91,enemy aircraft turning right,468.0490971950268 metres,11.78,-1.62,6.96,-19.48,3.99,81.66,2.75,0.06,0.0,0.0,0.5,90.32,0,0,0.1,-8.58,-77.67,31.38,behind,lost sight of enemy,lost sight of enemy
12.03,enemy aircraft turning right,471.8127784804436 metres,12.14,-1.56,6.93,-19.53,3.56,82.5,2.75,0.06,0.0,0.0,0.5,90.37,0,0,0.11,-8.49,-78.94,33.79,behind,lost sight of enemy,lost sight of enemy
12.14,enemy aircraft turning right,475.7329740571 metres,12.51,-1.49,6.9,-19.58,3.13,83.34,2.75,0.06,0.0,0.0,0.5,90.42,0,0,0.12,-8.38,-80.21,34.02,behind,lost sight of enemy,lost sight of enemy
12.25,enemy aircraft turning right,479.73601720765305 metres,12.87,-1.42,6.86,-19.63,2.7,84.17,2.75,0.06,0.0,0.0,0.5,90.47,0,0,0.11,-8.27,-81.48,35.14,behind,lost sight of enemy,lost sight of enemy
12.37,enemy aircraft turning right,483.9786078533165 metres,13.24,-1.34,6.81,-19.68,2.26,85.02,2.75,0.06,0.0,0.0,0.5,90.51,0,0,0.12,-8.15,-82.77,36.01,behind,lost sight of enemy,lost sight of enemy
12.49,enemy aircraft turning right,488.46634656002954 metres,13.62,-1.27,6.75,-19.74,1.8,85.89,2.75,0.06,0.0,0.0,0.5,90.56,0,0,0.12,-8.02,-84.09,37.44,behind,lost sight of enemy,lost sight of enemy
12.59,enemy aircraft turning right,492.37001843699693 metres,13.94,-1.21,6.7,-19.79,1.42,86.62,2.75,0.06,0.0,0.0,0.5,90.59,0,0,0.1,-7.91,-85.2,38.95,behind,might lose sight of enemy,lost sight of enemy
12.69,enemy aircraft turning right,496.3777070788075 metres,14.26,-1.15,6.64,-19.83,1.03,87.35,2.75,0.06,0.0,0.0,0.5,90.63,0,0,0.1,-7.79,-86.32,39.19,behind,might lose sight of enemy,lost sight of enemy
12.81,enemy aircraft turning right,501.3338962068918 metres,14.65,-1.07,6.57,-19.89,0.57,88.22,2.75,0.06,0.0,0.0,0.5,90.66,0,0,0.12,-7.64,-87.65,41.31,behind,might lose sight of enemy,lost sight of enemy
12.92,enemy aircraft turning right,505.51712025964184 metres,14.96,-0.98,6.51,-19.84,0.18,88.93,2.82,0.07,0.43,0.78,0.5,90.69,0,0,0.1,-7.48,-88.75,41.66,behind,might lose sight of enemy,lost sight of enemy
13.02,enemy aircraft turning right,509.8447387299575 metres,15.28,-0.09,6.44,-18.13,359.6,89.64,3.77,0.06,0.62,0.75,0.5,90.72,0,0,0.1,-6.52,-90.04,43.17,behind,might lose sight of enemy,lost sight of enemy
13.12,enemy aircraft turning right,514.4366279540798 metres,15.61,1.98,6.36,-15.99,358.69,90.37,5.7,-0.06,0.82,0.29,0.5,90.73,0,0,0.11,-4.38,-91.68,43.39,behind,might lose sight of enemy,lost sight of enemy
13.22,enemy aircraft turning right,519.1606682280831 metres,15.94,5.29,6.28,-14.95,357.46,91.1,8.54,-0.21,1.0,0.04,0.5,90.72,0,0,0.1,-0.99,-93.65,45.97,behind,good,lost sight of enemy
13.33,enemy aircraft turning right,523.8958555649934 metres,16.25,9.36,6.18,-14.78,356.05,91.81,11.64,-0.31,1.0,0.04,0.5,90.63,0,0,0.11,3.17,-95.76,44.54,behind,might lose sight of enemy,lost sight of enemy
13.43,enemy aircraft turning right,528.9158886368853 metres,16.57,13.76,6.07,-14.98,354.55,92.54,14.59,-0.34,1.0,0.04,0.5,90.44,1,0,0.1,7.7,-97.99,49.62,behind,might lose sight of enemy,lost sight of enemy
13.54,enemy aircraft turning right,534.3484166384014 metres,16.88,17.91,5.92,-15.68,353.06,93.29,17.22,-0.24,1.0,0.02,0.5,90.06,1,0,0.11,11.98,-100.23,49.07,behind,lost sight of enemy,lost sight of enemy
13.65,enemy aircraft turning right,539.8531598188603 metres,17.19,20.6,5.77,-18.57,351.73,94.03,18.88,0.42,0.79,0.05,0.5,89.48,1,0,0.11,14.84,-102.3,49.79,behind,lost sight of enemy,lost sight of enemy
13.76,enemy aircraft turning right,545.2780543085221 metres,17.48,21.37,5.6,-26.0,350.25,94.73,18.89,2.08,1.0,1.0,0.5,88.75,1,0,0.11,15.76,-104.47,51.07,behind,lost sight of enemy,lost sight of enemy
13.87,enemy aircraft turning right,550.9543517017663 metres,17.77,21.06,5.42,-36.2,348.45,95.43,17.83,4.06,1.0,1.0,0.5,87.89,1,0,0.11,15.64,-106.98,52.6,behind,lost sight of enemy,lost sight of enemy
13.97,enemy aircraft turning right,556.6180210246703 metres,18.05,20.18,5.24,-47.05,346.44,96.09,16.39,5.76,1.0,0.66,0.5,87.01,1,0,0.1,14.93,-109.64,54.22,behind,lost sight of enemy,lost sight of enemy
14.08,enemy aircraft turning right,562.5247135383863 metres,18.35,18.8,5.06,-58.59,344.16,96.75,14.93,7.11,1.0,0.29,0.5,86.14,1,0,0.11,13.74,-112.58,55.25,behind,lost sight of enemy,lost sight of enemy
14.19,enemy aircraft turning right,568.8499493643158 metres,18.66,16.82,4.87,-71.42,341.53,97.41,13.48,8.18,1.0,-0.37,0.5,85.27,1,0,0.11,11.95,-115.88,56.37,behind,lost sight of enemy,lost sight of enemy
14.3,enemy aircraft turning right,575.3915277665955 metres,18.98,14.19,4.68,-84.94,338.52,98.07,12.39,8.91,1.0,-0.38,0.5,84.48,1,0,0.11,9.52,-119.55,59.38,behind,lost sight of enemy,lost sight of enemy
14.42,enemy aircraft finished manoeuvre,582.4752408065066 metres,19.32,10.72,4.49,-98.24,335.01,98.74,11.99,9.3,1.0,-0.15,0.5,83.72,1,0,0.12,6.23,-123.73,61.57,behind,might lose sight of enemy,lost sight of enemy
14.53,enemy aircraft finished manoeuvre,589.9139899304282 metres,19.67,6.43,4.31,-109.52,331.44,99.4,12.49,9.4,0.82,0.97,0.5,83.02,1,0,0.12,2.12,-127.96,63.05,behind,good,lost sight of enemy
14.63,enemy aircraft finished manoeuvre,596.5470510622494 metres,19.96,2.22,4.17,-117.25,328.74,99.96,13.3,9.23,0.98,1.0,0.5,82.44,1,0,0.1,-1.96,-131.22,66.29,behind,good,lost sight of enemy
14.73,enemy aircraft finished manoeuvre,603.3145264602422 metres,20.24,-2.39,4.04,-124.0,326.4,100.5,14.26,8.98,1.0,1.0,0.5,81.88,1,0,0.1,-6.43,-134.1,66.87,behind,might lose sight of enemy,lost sight of enemy
14.84,enemy aircraft finished manoeuvre,610.3781035109703 metres,20.53,-7.4,3.93,-130.82,324.61,101.04,15.09,8.72,1.0,1.0,0.5,81.31,1,0,0.11,-11.33,-136.43,66.8,behind,lost sight of enemy,lost sight of enemy
14.94,enemy aircraft finished manoeuvre,617.6872664995471 metres,20.83,-12.67,3.83,-137.9,323.56,101.56,15.65,8.39,1.0,1.0,0.5,80.73,1,0,0.1,-16.5,-138.01,72.47,behind,lost sight of enemy,lost sight of enemy
15.05,enemy aircraft finished manoeuvre,625.4382088377528 metres,21.14,-18.22,3.75,-145.7,323.42,102.1,15.97,7.91,1.0,1.0,0.5,80.12,1,0,0.11,-21.97,-138.68,71.0,behind,lost sight of enemy,lost sight of enemy
15.16,enemy aircraft finished manoeuvre,633.5687785360299 metres,21.47,-23.83,3.69,-154.36,324.37,102.63,16.08,7.21,1.0,1.0,0.5,79.5,1,0,0.11,-27.52,-138.25,72.77,behind,lost sight of enemy,lost sight of enemy
15.28,enemy aircraft finished manoeuvre,641.9520696151859 metres,21.8,-29.21,3.65,-164.07,326.53,103.15,16.06,6.33,1.0,1.0,0.5,78.9,1,0,0.11,-32.86,-136.62,74.18,behind,lost sight of enemy,lost sight of enemy
15.39,enemy aircraft finished manoeuvre,650.1684393216369 metres,22.13,-33.97,3.64,-174.3,329.75,103.64,16.04,5.3,1.0,1.0,0.5,78.37,1,0,0.11,-37.6,-133.88,73.3,behind,lost sight of enemy,lost sight of enemy
15.5,enemy aircraft finished manoeuvre,658.5152943736381 metres,22.45,-38.19,3.64,174.64,334.15,104.12,16.19,4.11,1.0,1.0,0.5,77.91,1,0,0.11,-41.83,-129.97,76.38,behind,lost sight of enemy,lost sight of enemy
15.6,enemy aircraft finished manoeuvre,666.1792764479229 metres,22.74,-41.29,3.67,163.4,339.16,104.55,16.47,3.06,1.0,1.0,0.5,77.55,1,0,0.1,-44.96,-125.39,74.54,behind,lost sight of enemy,lost sight of enemy
15.7,enemy aircraft finished manoeuvre,673.9879071635992 metres,23.02,-43.34,3.72,150.64,344.98,104.98,16.65,2.15,0.86,1.0,0.5,77.24,1,0,0.1,-47.06,-120.0,74.62,behind,lost sight of enemy,lost sight of enemy
15.81,enemy aircraft finished manoeuvre,681.5082637090736 metres,23.29,-44.02,3.78,137.84,350.65,105.39,16.45,1.36,0.33,1.0,0.5,77.0,1,0,0.1,-47.8,-114.73,72.93,behind,lost sight of enemy,lost sight of enemy
15.91,enemy aircraft finished manoeuvre,688.9835615942706 metres,23.54,-42.86,3.86,126.05,354.5,105.8,14.51,0.53,-0.5,-0.06,0.5,76.83,1,0,0.1,-46.72,-111.29,73.71,behind,lost sight of enemy,lost sight of enemy
16.01,enemy aircraft finished manoeuvre,696.2312441285717 metres,23.78,-40.5,3.95,116.22,355.49,106.19,11.06,-0.52,-0.47,-0.19,0.5,76.77,1,0,0.1,-44.45,-110.7,70.26,behind,lost sight of enemy,lost sight of enemy
16.11,enemy aircraft finished manoeuvre,703.3898379838217 metres,24.01,-38.19,4.06,111.47,354.36,106.59,6.88,-2.14,-0.44,-0.29,0.5,76.88,0,0,0.1,-42.25,-112.23,70.19,behind,lost sight of enemy,lost sight of enemy
16.23,enemy aircraft finished manoeuvre,711.6109104517286 metres,24.24,-35.84,4.19,109.84,351.54,107.05,2.05,-4.11,-0.49,-0.26,0.5,77.27,0,0,0.12,-40.03,-115.51,69.29,behind,lost sight of enemy,lost sight of enemy
16.34,enemy aircraft finished manoeuvre,718.5618057858111 metres,24.42,-34.22,4.31,109.52,348.61,107.43,-1.63,-5.47,-0.59,-0.24,0.5,77.77,0,0,0.1,-38.53,-118.83,67.37,behind,lost sight of enemy,lost sight of enemy
16.44,enemy aircraft finished manoeuvre,725.7296996412326 metres,24.59,-33.02,4.44,109.44,345.32,107.83,-4.89,-6.43,-0.9,-0.56,0.5,78.42,0,0,0.1,-37.47,-122.51,69.74,behind,lost sight of enemy,lost sight of enemy
16.54,enemy aircraft finished manoeuvre,732.8586008944184 metres,24.73,-32.29,4.58,108.87,341.6,108.21,-7.77,-7.0,-1.0,-0.62,0.5,79.11,0,0,0.1,-36.86,-126.61,68.63,behind,lost sight of enemy,lost sight of enemy
16.65,enemy aircraft finished manoeuvre,740.154486446782 metres,24.86,-32.0,4.71,108.17,337.52,108.6,-10.27,-7.24,-1.0,-0.78,0.5,79.82,0,0,0.1,-36.71,-131.08,70.01,behind,lost sight of enemy,lost sight of enemy
16.75,enemy aircraft finished manoeuvre,747.477252302193 metres,24.97,-32.23,4.84,107.26,333.52,108.97,-12.1,-7.21,-1.0,-0.79,0.5,80.48,0,0,0.1,-37.07,-135.45,71.84,behind,lost sight of enemy,lost sight of enemy
16.85,enemy aircraft finished manoeuvre,754.9391753251833 metres,25.06,-32.97,4.98,106.19,329.76,109.33,-13.28,-6.9,-1.0,-0.71,0.5,81.09,0,0,0.1,-37.94,-139.57,72.26,behind,lost sight of enemy,lost sight of enemy
16.95,enemy aircraft finished manoeuvre,762.6055180772929 metres,25.14,-34.29,5.11,104.82,326.73,109.69,-13.48,-6.31,-0.42,-0.69,0.5,81.65,0,0,0.1,-39.41,-142.95,74.85,behind,lost sight of enemy,lost sight of enemy
17.06,enemy aircraft finished manoeuvre,770.714837074587 metres,25.21,-36.35,5.25,102.66,325.09,110.04,-12.42,-5.38,-0.33,-0.69,0.5,82.22,0,0,0.11,-41.61,-144.95,75.64,behind,lost sight of enemy,lost sight of enemy
17.17,enemy aircraft finished manoeuvre,779.2295879455733 metres,25.27,-38.99,5.4,99.73,324.78,110.39,-10.55,-4.08,-0.32,-0.59,0.5,82.83,0,0,0.11,-44.39,-145.61,77.98,behind,lost sight of enemy,lost sight of enemy
17.28,enemy aircraft finished manoeuvre,788.1824447694413 metres,25.33,-41.96,5.55,96.29,326.13,110.74,-7.9,-2.46,0.5,-0.26,0.5,83.58,0,0,0.11,-47.52,-144.61,80.11,behind,lost sight of enemy,lost sight of enemy
17.39,enemy aircraft finished manoeuvre,797.2052293620638 metres,25.38,-44.78,5.71,91.11,331.28,111.08,-3.35,-0.84,1.0,-0.23,0.5,84.47,0,0,0.11,-50.49,-139.8,83.57,behind,lost sight of enemy,lost sight of enemy
17.5,enemy aircraft finished manoeuvre,806.1872710520911 metres,25.43,-46.64,5.87,83.26,340.59,111.4,2.59,0.55,1.0,-0.22,0.5,85.51,0,0,0.11,-52.51,-130.81,82.7,behind,lost sight of enemy,lost sight of enemy
17.6,enemy aircraft finished manoeuvre,814.5460333336301 metres,25.46,-46.92,6.02,74.38,351.64,111.71,8.4,1.62,1.0,-0.21,0.5,86.58,0,0,0.1,-52.94,-120.07,81.45,behind,lost sight of enemy,lost sight of enemy
17.71,enemy aircraft finished manoeuvre,822.7566589502908 metres,25.48,-45.7,6.18,65.68,2.68,112.02,13.46,2.46,1.0,-0.89,0.5,87.62,1,0,0.1,-51.87,-109.35,79.27,behind,lost sight of enemy,lost sight of enemy
17.81,enemy aircraft finished manoeuvre,830.8194955907303 metres,25.49,-43.48,6.34,57.51,11.94,112.35,17.29,3.32,1.0,-1.0,0.5,88.53,1,0,0.11,-49.81,-100.41,76.56,behind,lost sight of enemy,lost sight of enemy
17.91,enemy aircraft finished manoeuvre,838.6751531105002 metres,25.48,-41.35,6.49,51.59,18.33,112.68,19.98,4.09,1.0,-1.0,0.5,89.21,1,0,0.1,-47.84,-94.35,77.09,behind,lost sight of enemy,lost sight of enemy
18.01,enemy aircraft finished manoeuvre,846.2454913255871 metres,25.47,-40.24,6.65,47.82,21.43,113.01,20.56,4.66,1.0,-0.45,0.5,89.62,1,0,0.1,-46.89,-91.58,75.03,behind,lost sight of enemy,lost sight of enemy
18.12,enemy aircraft finished manoeuvre,850.6749159718764 metres,25.45,-39.96,6.74,44.95,21.86,113.2,19.69,5.2,1.0,-0.45,0.5,89.76,1,0,0.1,-46.7,-91.34,43.11,behind,lost sight of enemy,lost sight of enemy
18.22,enemy aircraft finished manoeuvre,862.8844655606273 metres,25.39,-38.86,6.99,26.88,19.51,113.77,14.33,7.76,1.0,-0.4,0.5,90.01,1,0,0.1,-45.84,-94.26,121.94,behind,lost sight of enemy,lost sight of enemy
18.32,enemy aircraft finished manoeuvre,870.1747585277806 metres,25.34,-37.36,7.13,13.88,17.29,114.11,11.7,8.35,1.0,-0.4,0.5,90.24,1,0,0.1,-44.5,-96.82,71.5,behind,lost sight of enemy,lost sight of enemy
18.42,enemy aircraft finished manoeuvre,877.5780183310892 metres,25.27,-34.87,7.28,3.17,14.97,114.47,10.68,8.1,1.0,-0.4,0.5,90.6,0,0,0.1,-42.15,-99.5,71.79,behind,lost sight of enemy,lost sight of enemy
18.53,enemy aircraft finished manoeuvre,885.1206797764196 metres,25.18,-31.4,7.41,-2.85,12.71,114.84,11.31,7.34,1.0,-0.26,0.5,91.1,1,0,0.11,-38.81,-102.13,71.15,behind,lost sight of enemy,lost sight of enemy
18.63,enemy aircraft finished manoeuvre,893.2126241534584 metres,25.07,-26.93,7.55,-4.55,10.31,115.23,13.08,6.01,1.0,-0.13,0.5,91.73,1,0,0.1,-34.48,-104.92,77.51,behind,lost sight of enemy,lost sight of enemy
18.74,enemy aircraft finished manoeuvre,900.6008436884372 metres,24.94,-22.75,7.65,-4.17,8.04,115.6,14.86,4.37,1.0,-0.12,0.5,92.33,1,0,0.11,-30.4,-107.56,68.7,behind,lost sight of enemy,lost sight of enemy
18.85,enemy aircraft finished manoeuvre,908.7697878603841 metres,24.78,-18.76,7.75,-4.7,5.49,116.01,16.24,2.72,1.0,-0.1,0.5,92.95,1,0,0.11,-26.51,-110.52,74.9,behind,lost sight of enemy,lost sight of enemy
18.96,enemy aircraft finished manoeuvre,916.9718816451722 metres,24.59,-15.81,7.82,-9.48,2.85,116.41,17.01,2.27,1.0,-0.1,0.5,93.49,1,0,0.11,-23.64,-113.57,75.84,behind,lost sight of enemy,lost sight of enemy
19.06,enemy aircraft finished manoeuvre,925.1838414379133 metres,24.39,-14.14,7.89,-21.25,359.59,116.81,17.02,3.6,1.0,-0.1,0.5,93.95,1,0,0.11,-22.02,-117.22,76.27,behind,lost sight of enemy,lost sight of enemy
19.17,enemy aircraft finished manoeuvre,933.9156426516112 metres,24.16,-13.72,7.94,-36.88,355.62,117.23,16.09,5.59,1.0,-0.1,0.5,94.34,1,0,0.11,-21.66,-121.6,79.39,behind,lost sight of enemy,lost sight of enemy
19.29,enemy aircraft finished manoeuvre,943.3204001975638 metres,23.91,-14.43,7.99,-53.06,350.99,117.65,14.82,7.13,1.0,0.37,0.5,94.69,1,0,0.11,-22.42,-126.66,82.42,behind,lost sight of enemy,lost sight of enemy
19.4,enemy aircraft finished manoeuvre,952.0326171253432 metres,23.68,-15.65,8.02,-64.49,346.41,118.02,14.35,7.64,0.77,1.0,0.5,94.99,1,0,0.11,-23.67,-131.61,81.54,behind,lost sight of enemy,lost sight of enemy
19.51,enemy aircraft finished manoeuvre,962.2888555717763 metres,23.42,-17.9,8.06,-74.2,341.71,118.42,13.74,7.43,1.0,0.69,0.5,95.3,1,0,0.12,-25.96,-136.72,88.28,behind,lost sight of enemy,lost sight of enemy
19.61,enemy aircraft finished manoeuvre,971.2100090158776 metres,23.19,-20.24,8.09,-81.57,337.59,118.75,13.65,7.09,1.0,0.33,0.5,95.58,1,0,0.1,-28.33,-141.16,88.13,behind,lost sight of enemy,lost sight of enemy
19.71,enemy aircraft finished manoeuvre,980.6456270358273 metres,22.97,-23.06,8.12,-89.38,333.2,119.07,13.82,6.93,0.35,0.46,0.5,95.86,1,0,0.1,-31.18,-145.87,92.49,behind,lost sight of enemy,lost sight of enemy
19.82,enemy aircraft finished manoeuvre,990.4828530382313 metres,22.74,-26.38,8.16,-98.12,330.43,119.37,12.61,6.76,0.25,0.7,0.5,96.16,1,0,0.1,-34.54,-148.95,93.98,behind,lost sight of enemy,lost sight of enemy
19.92,enemy aircraft finished manoeuvre,1000.613737255029 metres,22.53,-29.51,8.2,-103.74,329.47,119.66,10.32,5.74,-0.06,0.85,0.5,96.5,1,0,0.11,-37.71,-150.19,95.97,behind,lost sight of enemy,lost sight of enemy
20.03,enemy aircraft finished manoeuvre,1011.0119981159405 metres,22.32,-32.06,8.25,-104.32,330.38,119.93,7.26,3.77,-0.14,0.76,0.5,96.95,0,0,0.1,-40.31,-149.54,99.11,behind,lost sight of enemy,lost sight of enemy
20.13,enemy aircraft finished manoeuvre,1021.2207855952059 metres,22.14,-34.19,8.31,-103.39,332.37,120.17,4.09,1.8,-0.08,0.65,0.5,97.52,0,0,0.1,-42.5,-147.79,99.71,behind,lost sight of enemy,lost sight of enemy
20.23,enemy aircraft finished manoeuvre,1031.7185991197052 metres,21.96,-36.05,8.37,-102.12,334.44,120.39,1.36,0.25,-0.08,0.63,0.5,98.25,0,0,0.1,-44.42,-145.95,102.96,behind,lost sight of enemy,lost sight of enemy
20.33,enemy aircraft finished manoeuvre,1041.9819300849042 metres,21.78,-37.5,8.44,-100.27,335.89,120.61,-0.5,-0.67,-0.06,0.75,0.5,99.07,0,0,0.1,-45.94,-144.71,101.63,behind,lost sight of enemy,lost sight of enemy
20.44,enemy aircraft finished manoeuvre,1052.5610420107246 metres,21.61,-38.56,8.51,-97.17,336.49,120.81,-1.53,-0.96,-0.06,0.81,0.5,100.0,0,0,0.1,-47.07,-144.33,104.04,behind,lost sight of enemy,lost sight of enemy
20.54,enemy aircraft finished manoeuvre,1063.126675783333 metres,21.45,-39.2,8.59,-93.14,336.18,121.01,-1.8,-0.72,-0.06,0.81,0.5,100.96,0,0,0.1,-47.79,-144.84,103.38,behind,lost sight of enemy,lost sight of enemy
20.64,enemy aircraft finished manoeuvre,1073.6870566846576 metres,21.29,-39.53,8.67,-88.48,335.16,121.21,-1.52,-0.22,-0.06,0.81,0.5,101.94,0,0,0.1,-48.2,-146.05,104.99,behind,lost sight of enemy,lost sight of enemy
20.74,enemy aircraft finished manoeuvre,1084.5263419406929 metres,21.13,-39.64,8.76,-83.27,333.64,121.4,-0.9,0.34,-0.06,0.87,0.5,102.96,0,0,0.1,-48.4,-147.75,104.01,behind,lost sight of enemy,lost sight of enemy
20.84,enemy aircraft finished manoeuvre,1095.165934923656 metres,20.97,-39.61,8.85,-77.45,331.85,121.57,-0.1,0.81,-0.04,1.0,0.5,103.96,0,0,0.1,-48.46,-149.72,106.32,behind,lost sight of enemy,lost sight of enemy
20.95,enemy aircraft finished manoeuvre,1106.2537586166827 metres,20.82,-39.47,8.94,-70.97,329.83,121.75,0.76,1.11,-0.04,1.0,0.5,104.98,0,0,0.1,-48.41,-151.92,106.58,behind,lost sight of enemy,lost sight of enemy
21.05,enemy aircraft finished manoeuvre,1117.5685186467563 metres,20.66,-39.26,9.04,-64.35,327.78,121.92,1.51,1.18,-0.01,1.0,0.5,106.02,0,0,0.1,-48.3,-154.14,108.98,behind,lost sight of enemy,lost sight of enemy
21.16,enemy aircraft finished manoeuvre,1128.978940344471 metres,20.5,-39.0,9.14,-57.79,325.78,122.08,2.11,1.07,0.0,1.0,0.5,107.03,0,0,0.11,-48.13,-156.29,107.01,behind,lost sight of enemy,lost sight of enemy
21.27,enemy aircraft finished manoeuvre,1141.1413022775191 metres,20.34,-38.63,9.24,-51.03,323.79,122.24,2.58,0.81,0.04,1.0,0.5,108.08,0,0,0.11,-47.86,-158.44,109.73,behind,lost sight of enemy,lost sight of enemy
21.38,enemy aircraft finished manoeuvre,1153.413068275266 metres,20.17,-38.1,9.34,-44.42,321.92,122.38,2.94,0.48,0.04,1.0,0.5,109.11,0,0,0.11,-47.43,-160.46,112.8,behind,lost sight of enemy,lost sight of enemy
21.49,enemy aircraft finished manoeuvre,1166.1289135901386 metres,20.0,-37.4,9.43,-37.86,320.24,122.53,3.18,0.14,0.04,1.0,0.5,110.13,0,0,0.11,-46.84,-162.29,111.98,behind,lost sight of enemy,lost sight of enemy
21.6,enemy aircraft finished manoeuvre,1178.8313289354815 metres,19.83,-36.58,9.53,-31.61,318.89,122.66,3.28,-0.14,0.04,1.0,0.5,111.11,0,0,0.11,-46.11,-163.77,118.55,behind,lost sight of enemy,lost sight of enemy
21.7,enemy aircraft finished manoeuvre,1190.605335523905 metres,19.66,-35.73,9.61,-26.06,317.96,122.78,3.3,-0.31,0.04,1.0,0.5,111.99,0,0,0.1,-45.34,-164.82,115.0,behind,lost sight of enemy,lost sight of enemy
21.8,enemy aircraft finished manoeuvre,1202.6501882110733 metres,19.49,-34.77,9.69,-20.58,317.29,122.89,3.32,-0.41,0.05,1.0,0.5,112.86,0,0,0.1,-44.45,-165.6,119.53,behind,lost sight of enemy,lost sight of enemy
21.9,enemy aircraft finished manoeuvre,1214.634511544588 metres,19.32,-33.72,9.76,-15.3,316.89,122.99,3.34,-0.44,0.05,1.0,0.5,113.7,0,0,0.1,-43.48,-166.1,117.61,behind,lost sight of enemy,lost sight of enemy
22.01,enemy aircraft finished manoeuvre,1226.9066594606563 metres,19.14,-32.6,9.83,-10.05,316.74,123.09,3.39,-0.42,0.05,1.0,0.5,114.52,0,0,0.1,-42.42,-166.36,120.87,behind,lost sight of enemy,lost sight of enemy
22.11,enemy aircraft finished manoeuvre,1239.2702480506725 metres,18.95,-31.45,9.89,-4.89,316.82,123.19,3.43,-0.37,0.05,1.0,0.5,115.33,0,0,0.1,-41.34,-166.38,120.25,behind,lost sight of enemy,lost sight of enemy
22.21,enemy aircraft finished manoeuvre,1251.706270118287 metres,18.76,-30.32,9.95,0.2,317.1,123.29,3.47,-0.31,0.05,1.0,0.5,116.11,0,0,0.1,-40.27,-166.19,122.23,behind,lost sight of enemy,lost sight of enemy
22.31,enemy aircraft finished manoeuvre,1264.332807144757 metres,18.56,-29.21,10.0,5.27,317.57,123.39,3.5,-0.26,0.05,1.0,0.5,116.88,0,0,0.1,-39.22,-165.82,122.12,behind,lost sight of enemy,lost sight of enemy
22.42,enemy aircraft finished manoeuvre,1277.1846466061227 metres,18.35,-28.15,10.05,10.36,318.2,123.49,3.51,-0.23,0.05,1.0,0.5,117.63,0,0,0.1,-38.2,-165.28,123.53,behind,lost sight of enemy,lost sight of enemy
22.52,enemy aircraft finished manoeuvre,1290.5796942013294 metres,18.13,-26.93,10.1,15.44,319.05,123.59,3.72,-0.22,0.26,0.74,0.5,118.38,0,0,0.11,-37.02,-164.54,124.66,behind,lost sight of enemy,lost sight of enemy
22.63,enemy aircraft finished manoeuvre,1303.918156371864 metres,17.9,-24.73,10.13,18.86,320.28,123.7,4.92,-0.3,0.6,0.29,0.5,119.09,0,0,0.1,-34.87,-163.42,127.69,behind,lost sight of enemy,lost sight of enemy
22.74,enemy aircraft finished manoeuvre,1317.2528573781422 metres,17.67,-21.03,10.17,20.1,322.05,123.8,7.31,-0.43,0.73,0.17,0.5,119.76,0,0,0.11,-31.2,-161.76,124.74,behind,lost sight of enemy,lost sight of enemy
22.84,enemy aircraft finished manoeuvre,1330.9223370960794 metres,17.42,-16.33,10.19,20.84,324.21,123.92,10.09,-0.6,0.73,0.29,0.5,120.36,0,0,0.11,-26.52,-159.71,128.23,behind,lost sight of enemy,lost sight of enemy
22.95,enemy aircraft finished manoeuvre,1344.8103120117214 metres,17.16,-11.86,10.2,22.13,326.32,124.04,11.97,-0.93,0.47,0.45,0.5,120.82,1,0,0.11,-22.06,-157.72,126.83,behind,lost sight of enemy,lost sight of enemy
23.06,enemy aircraft finished manoeuvre,1358.6324878603584 metres,16.87,-9.74,10.19,23.71,327.49,124.17,10.98,-1.32,-0.2,-0.11,0.5,121.11,1,0,0.11,-19.93,-156.68,128.05,behind,lost sight of enemy,lost sight of enemy
23.16,enemy aircraft finished manoeuvre,1372.1421964600559 metres,16.58,-10.32,10.17,22.2,327.47,124.3,7.84,-1.17,0.07,-0.89,0.5,121.31,0,0,0.1,-20.5,-156.83,128.84,behind,lost sight of enemy,lost sight of enemy
23.27,enemy aircraft finished manoeuvre,1385.8864884298634 metres,16.27,-11.32,10.15,18.21,327.37,124.45,5.16,-0.76,0.17,-0.66,0.5,121.52,0,0,0.11,-21.46,-157.08,124.83,behind,lost sight of enemy,lost sight of enemy
23.39,enemy aircraft finished manoeuvre,1400.5278747736932 metres,15.94,-11.59,10.11,13.99,327.64,124.6,3.69,-0.38,0.17,-0.65,0.5,121.8,0,0,0.12,-21.7,-156.96,126.86,behind,lost sight of enemy,lost sight of enemy
23.51,enemy aircraft finished manoeuvre,1414.925023202935 metres,15.61,-10.9,10.07,9.91,328.1,124.75,3.39,-0.04,0.17,-0.65,0.5,122.12,0,0,0.11,-20.97,-156.65,125.4,behind,lost sight of enemy,lost sight of enemy
23.62,enemy aircraft finished manoeuvre,1430.109549476553 metres,15.25,-9.51,10.02,5.73,328.54,124.91,3.63,0.28,0.06,-0.62,0.5,122.49,0,0,0.11,-19.54,-156.37,132.26,behind,lost sight of enemy,lost sight of enemy
23.72,enemy aircraft finished manoeuvre,1443.4848660079142 metres,14.94,-8.42,9.98,2.31,328.73,125.05,3.59,0.49,-0.02,-0.53,0.5,122.81,0,0,0.1,-18.4,-156.32,128.12,behind,lost sight of enemy,lost sight of enemy
23.83,enemy aircraft finished manoeuvre,1456.5432570523308 metres,14.63,-7.78,9.93,-0.66,328.73,125.18,3.15,0.59,-0.03,-0.49,0.5,123.11,0,0,0.1,-17.71,-156.45,126.52,behind,lost sight of enemy,lost sight of enemy
23.93,enemy aircraft finished manoeuvre,1469.5753487621507 metres,14.31,-7.21,9.88,-3.42,328.57,125.32,2.82,0.57,0.12,-0.46,0.5,123.4,0,0,0.1,-17.09,-156.74,128.86,behind,lost sight of enemy,lost sight of enemy
24.03,enemy aircraft finished manoeuvre,1482.9050145095357 metres,13.99,-6.11,9.82,-6.15,328.24,125.45,3.05,0.5,0.16,-0.45,0.5,123.67,0,0,0.1,-15.94,-157.21,128.54,behind,lost sight of enemy,lost sight of enemy
24.13,enemy aircraft finished manoeuvre,1495.9567792261364 metres,13.68,-4.52,9.77,-8.69,327.76,125.58,3.71,0.44,0.19,-0.33,0.5,123.91,0,0,0.1,-14.29,-157.82,128.51,behind,lost sight of enemy,lost sight of enemy
24.24,enemy aircraft finished manoeuvre,1508.9375396402236 metres,13.36,-2.58,9.71,-10.55,327.17,125.7,4.58,0.42,0.22,-0.22,0.5,124.12,0,0,0.1,-12.29,-158.53,128.27,behind,lost sight of enemy,lost sight of enemy
24.34,enemy aircraft finished manoeuvre,1521.7733791903768 metres,13.05,-0.54,9.64,-11.88,326.54,125.82,5.35,0.43,0.22,-0.19,0.5,124.28,0,0,0.1,-10.19,-159.28,127.73,behind,lost sight of enemy,lost sight of enemy
24.45,enemy aircraft finished manoeuvre,1537.0673198993024 metres,12.67,1.71,9.56,-13.25,325.76,125.95,5.93,0.45,0.22,-0.19,0.5,124.41,0,0,0.12,-7.86,-160.19,129.06,behind,might lose sight of enemy,lost sight of enemy
24.56,enemy aircraft finished manoeuvre,1549.9430359422774 metres,12.35,3.37,9.49,-14.38,325.1,126.06,6.11,0.48,0.24,-0.18,0.5,124.47,0,0,0.1,-6.12,-160.96,127.5,behind,might lose sight of enemy,lost sight of enemy
24.67,enemy aircraft finished manoeuvre,1564.672772261364 metres,11.98,5.33,9.4,-15.34,324.28,126.18,6.41,0.48,0.35,-0.05,0.5,124.47,0,0,0.11,-4.07,-161.91,129.75,behind,might lose sight of enemy,lost sight of enemy
24.79,enemy aircraft finished manoeuvre,1579.8893364954008 metres,11.6,7.65,9.3,-15.87,323.3,126.3,6.92,0.43,0.33,-0.03,0.5,124.4,0,0,0.12,-1.65,-163.0,127.3,behind,good,lost sight of enemy
24.9,enemy aircraft finished manoeuvre,1594.5581558075032 metres,11.22,9.44,9.19,-16.01,322.45,126.41,6.79,0.35,-0.03,0.09,0.5,124.26,0,0,0.11,0.25,-163.96,128.76,behind,good,lost sight of enemy
25.01,enemy aircraft finished manoeuvre,1608.9139001804417 metres,10.84,9.6,9.08,-15.63,322.08,126.51,5.18,0.22,-0.08,0.1,0.5,124.07,0,0,0.11,0.51,-164.42,127.28,behind,good,lost sight of enemy
25.13,enemy aircraft finished manoeuvre,1623.1140010874135 metres,10.47,8.79,8.97,-15.09,322.01,126.6,3.11,0.12,-0.08,0.1,0.5,123.87,0,0,0.11,-0.18,-164.59,127.73,behind,good,lost sight of enemy
25.25,enemy aircraft finished manoeuvre,1638.110915374876 metres,10.08,7.8,8.85,-14.44,322.0,126.69,1.34,0.06,-0.08,0.1,0.5,123.65,0,0,0.12,-1.05,-164.7,125.39,behind,good,lost sight of enemy
25.35,enemy aircraft finished manoeuvre,1651.9282345093077 metres,9.72,7.18,8.74,-13.81,321.95,126.78,0.34,0.06,-0.08,0.1,0.5,123.45,0,0,0.11,-1.56,-164.82,131.58,behind,good,lost sight of enemy
25.45,enemy aircraft finished manoeuvre,1664.0549822215444 metres,9.41,6.94,8.64,-13.23,321.86,126.85,-0.07,0.09,-0.08,0.1,0.5,123.26,0,0,0.1,-1.7,-164.98,119.73,behind,good,lost sight of enemy
25.56,enemy aircraft finished manoeuvre,1678.1046494179154 metres,9.05,7.02,8.53,-12.55,321.7,126.93,-0.13,0.14,-0.08,0.1,0.5,123.04,0,0,0.11,-1.51,-165.23,129.43,behind,good,lost sight of enemy
25.67,enemy aircraft finished manoeuvre,1692.1316798329412 metres,8.7,7.38,8.43,-11.87,321.48,127.0,0.07,0.18,-0.08,0.1,0.5,122.8,0,0,0.11,-1.05,-165.52,124.56,behind,good,lost sight of enemy
25.79,enemy aircraft finished manoeuvre,1706.327223298541 metres,8.35,7.9,8.32,-11.16,321.23,127.08,0.37,0.21,-0.11,0.13,0.5,122.53,0,0,0.11,-0.42,-165.84,125.28,behind,good,lost sight of enemy
25.9,enemy aircraft finished manoeuvre,1720.3543797174198 metres,8.01,8.34,8.22,-10.32,321.01,127.15,0.52,0.22,-0.15,0.14,0.5,122.25,0,0,0.11,0.12,-166.14,126.03,behind,good,lost sight of enemy
26.01,enemy aircraft finished manoeuvre,1734.315097545965 metres,7.67,8.57,8.12,-9.42,320.83,127.22,0.45,0.22,-0.2,0.14,0.5,121.95,0,0,0.11,0.45,-166.39,124.85,behind,good,lost sight of enemy
26.12,enemy aircraft finished manoeuvre,1748.3478904834124 metres,7.34,8.43,8.02,-8.47,320.71,127.29,0.05,0.21,-0.3,0.15,0.5,121.63,0,0,0.11,0.42,-166.57,124.58,behind,good,lost sight of enemy
26.23,enemy aircraft finished manoeuvre,1762.0195203039048 metres,7.02,7.78,7.92,-7.46,320.69,127.35,-0.74,0.22,-0.35,0.17,0.5,121.29,0,0,0.11,-0.14,-166.66,124.86,behind,good,lost sight of enemy
26.34,enemy aircraft finished manoeuvre,1775.8828853841362 metres,6.7,6.7,7.83,-6.29,320.72,127.41,-1.72,0.24,-0.4,0.19,0.5,120.93,0,0,0.11,-1.12,-166.7,124.6,behind,good,lost sight of enemy
26.45,enemy aircraft finished manoeuvre,1789.586854487925 metres,6.39,5.35,7.73,-4.98,320.78,127.47,-2.75,0.3,-0.45,0.22,0.5,120.55,0,0,0.11,-2.39,-166.7,122.93,behind,good,lost sight of enemy
26.57,enemy aircraft finished manoeuvre,1803.6331681050754 metres,6.08,3.8,7.65,-3.5,320.83,127.53,-3.69,0.38,-0.45,0.22,0.5,120.14,0,0,0.11,-3.85,-166.7,124.73,behind,might lose sight of enemy,lost sight of enemy
26.68,enemy aircraft finished manoeuvre,1817.5425395126585 metres,5.78,2.31,7.56,-2.01,320.85,127.59,-4.36,0.46,-0.45,0.22,0.5,119.71,0,0,0.11,-5.26,-166.74,123.02,behind,might lose sight of enemy,lost sight of enemy
26.79,enemy aircraft finished manoeuvre,1831.6906577128968 metres,5.48,0.98,7.49,-0.5,320.81,127.65,-4.7,0.51,-0.38,0.22,0.5,119.24,0,0,0.11,-6.51,-166.84,123.83,behind,might lose sight of enemy,lost sight of enemy
26.91,enemy aircraft finished manoeuvre,1845.5094597319733 metres,5.21,0.11,7.42,0.99,320.72,127.71,-4.55,0.53,-0.32,0.22,0.5,118.77,0,0,0.11,-7.3,-166.99,123.72,behind,might lose sight of enemy,lost sight of enemy
27.02,enemy aircraft finished manoeuvre,1859.793072577322 metres,4.93,-0.24,7.35,2.52,320.61,127.77,-3.95,0.5,-0.19,0.22,0.5,118.28,0,0,0.12,-7.59,-167.16,123.59,behind,might lose sight of enemy,lost sight of enemy
27.14,enemy aircraft finished manoeuvre,1874.3341792201472 metres,4.66,0.58,7.29,4.05,320.57,127.83,-2.29,0.42,0.23,0.21,0.5,117.8,0,0,0.12,-6.7,-167.26,123.41,behind,might lose sight of enemy,lost sight of enemy
27.24,enemy aircraft finished manoeuvre,1886.9242202412836 metres,4.43,2.86,7.24,5.34,320.68,127.88,0.26,0.3,0.28,0.21,0.5,117.41,0,0,0.1,-4.38,-167.2,124.22,behind,might lose sight of enemy,lost sight of enemy
27.35,enemy aircraft finished manoeuvre,1899.6942683233885 metres,4.2,6.11,7.19,6.63,320.96,127.93,3.16,0.11,0.28,0.21,0.5,117.04,0,0,0.11,-1.08,-166.97,118.44,behind,good,lost sight of enemy
27.45,enemy aircraft finished manoeuvre,1912.556323875251 metres,3.97,9.63,7.14,7.88,321.36,127.98,5.71,-0.13,0.28,0.21,0.5,116.66,0,0,0.1,2.49,-166.62,125.44,behind,good,lost sight of enemy
27.56,enemy aircraft finished manoeuvre,1925.4615910715174 metres,3.74,12.79,7.08,9.07,321.84,128.03,7.43,-0.38,0.25,0.19,0.5,116.26,0,0,0.11,5.71,-166.2,121.45,behind,might lose sight of enemy,lost sight of enemy
27.67,enemy aircraft finished manoeuvre,1939.4913160748968 metres,3.49,15.18,7.02,10.14,322.31,128.09,7.92,-0.58,0.15,0.15,0.5,115.77,0,0,0.11,8.16,-165.78,124.25,behind,lost sight of enemy,lost sight of enemy
27.78,enemy aircraft finished manoeuvre,1952.349645495168 metres,3.26,16.14,6.95,10.98,322.65,128.14,7.16,-0.67,0.01,0.15,0.5,115.27,0,0,0.11,9.18,-165.49,116.84,behind,lost sight of enemy,lost sight of enemy
27.88,enemy aircraft finished manoeuvre,1965.0165700074588 metres,3.03,16.03,6.88,11.79,322.88,128.19,5.63,-0.66,-0.02,0.15,0.5,114.76,0,0,0.1,9.15,-165.31,122.8,behind,lost sight of enemy,lost sight of enemy
27.99,enemy aircraft finished manoeuvre,1977.5998846063994 metres,2.8,15.36,6.81,12.63,323.09,128.25,3.94,-0.56,-0.03,0.15,0.5,114.25,0,0,0.11,8.55,-165.16,118.11,behind,lost sight of enemy,lost sight of enemy
28.1,enemy aircraft finished manoeuvre,1990.2325003383144 metres,2.57,14.59,6.74,13.52,323.33,128.3,2.51,-0.39,-0.04,0.13,0.5,113.75,0,0,0.11,7.85,-164.97,116.44,behind,might lose sight of enemy,lost sight of enemy
28.21,enemy aircraft finished manoeuvre,2002.710359212217 metres,2.35,13.95,6.67,14.38,323.61,128.36,1.49,-0.21,-0.12,0.08,0.5,113.28,0,0,0.11,7.28,-164.74,116.29,behind,might lose sight of enemy,lost sight of enemy
28.31,enemy aircraft finished manoeuvre,2014.9913452286526 metres,2.13,13.28,6.6,14.98,323.85,128.41,0.6,-0.05,-0.22,0.04,0.5,112.83,0,0,0.11,6.68,-164.55,115.77,behind,might lose sight of enemy,lost sight of enemy
28.42,enemy aircraft finished manoeuvre,2027.3729601097655 metres,1.92,12.49,6.53,15.38,324.01,128.46,-0.22,0.05,-0.23,0.04,0.5,112.38,0,0,0.11,5.96,-164.45,115.75,behind,might lose sight of enemy,lost sight of enemy
28.53,enemy aircraft finished manoeuvre,2039.720463528165 metres,1.71,11.72,6.46,15.73,324.11,128.52,-0.87,0.1,-0.23,0.04,0.5,111.94,0,0,0.11,5.26,-164.4,115.3,behind,might lose sight of enemy,lost sight of enemy
28.63,enemy aircraft finished manoeuvre,2051.9965263908853 metres,1.51,11.05,6.39,16.05,324.19,128.57,-1.3,0.1,-0.23,0.04,0.5,111.5,0,0,0.11,4.66,-164.38,114.8,behind,might lose sight of enemy,lost sight of enemy
28.74,enemy aircraft finished manoeuvre,2064.204869128703 metres,1.32,10.52,6.33,16.36,324.28,128.62,-1.53,0.08,-0.23,0.04,0.5,111.05,0,0,0.11,4.19,-164.34,113.58,behind,might lose sight of enemy,lost sight of enemy
28.85,enemy aircraft finished manoeuvre,2076.5216394331323 metres,1.13,10.1,6.27,16.67,324.39,128.68,-1.59,0.04,-0.23,0.04,0.5,110.59,0,0,0.11,3.84,-164.28,113.91,behind,might lose sight of enemy,lost sight of enemy
28.96,enemy aircraft finished manoeuvre,2088.763982373865 metres,0.95,9.8,6.21,16.98,324.54,128.73,-1.54,-0.0,-0.23,0.04,0.5,110.12,0,0,0.11,3.59,-164.19,113.77,behind,might lose sight of enemy,lost sight of enemy
29.07,enemy aircraft finished manoeuvre,2101.0434726895664 metres,0.77,9.55,6.15,17.29,324.72,128.78,-1.42,-0.04,-0.23,0.04,0.5,109.65,0,0,0.11,3.41,-164.06,112.65,behind,might lose sight of enemy,lost sight of enemy
29.17,enemy aircraft finished manoeuvre,2113.259309086724 metres,0.61,9.35,6.09,17.6,324.93,128.84,-1.29,-0.06,-0.23,0.04,0.5,109.18,0,0,0.11,3.25,-163.91,113.11,behind,might lose sight of enemy,lost sight of enemy
29.29,enemy aircraft finished manoeuvre,2126.1458127449014 metres,0.44,9.14,6.04,17.93,325.17,128.89,-1.16,-0.07,-0.23,0.04,0.5,108.68,0,0,0.12,3.1,-163.72,111.06,behind,might lose sight of enemy,lost sight of enemy
29.39,enemy aircraft finished manoeuvre,2137.846709889997 metres,0.3,8.93,5.99,18.22,325.4,128.94,-1.06,-0.08,-0.23,0.04,0.5,108.23,0,0,0.1,2.94,-163.54,112.94,behind,good,lost sight of enemy
29.51,enemy aircraft finished manoeuvre,2150.908481525964 metres,0.15,8.67,5.94,18.56,325.67,129.0,-0.99,-0.07,-0.23,0.04,0.5,107.72,0,0,0.12,2.73,-163.33,109.75,behind,good,lost sight of enemy
29.61,enemy aircraft finished manoeuvre,2162.4109353637305 metres,0.08,8.42,5.89,18.86,325.9,129.05,-0.96,-0.07,-0.25,0.04,0.5,107.28,0,0,0.1,2.52,-163.15,114.49,behind,good,lost sight of enemy
29.72,enemy aircraft finished manoeuvre,2174.537293401516 metres,0.16,7.99,5.85,19.16,326.1,129.1,-1.09,-0.07,-0.31,0.04,0.5,106.82,0,0,0.11,2.14,-163.01,111.59,behind,good,lost sight of enemy
29.83,enemy aircraft finished manoeuvre,2186.513942289978 metres,0.27,7.38,5.81,19.45,326.23,129.16,-1.37,-0.06,-0.31,0.04,0.5,106.37,0,0,0.11,1.58,-162.93,110.49,behind,good,lost sight of enemy
29.94,enemy aircraft finished manoeuvre,2198.6733823581662 metres,0.39,6.65,5.76,19.74,326.32,129.21,-1.69,-0.06,-0.31,0.04,0.5,105.91,0,0,0.11,0.89,-162.88,109.91,behind,good,lost sight of enemy
30.05,enemy aircraft finished manoeuvre,2210.9009153073384 metres,0.51,5.88,5.72,20.04,326.41,129.26,-1.98,-0.06,-0.31,0.04,0.5,105.46,0,0,0.11,0.16,-162.85,109.5,behind,good,lost sight of enemy
30.16,enemy aircraft finished manoeuvre,2223.1901541672296 metres,0.61,5.12,5.69,20.33,326.5,129.32,-2.19,-0.06,-0.31,0.04,0.5,105.01,0,0,0.11,-0.57,-162.82,111.03,behind,good,lost sight of enemy
30.28,enemy aircraft finished manoeuvre,2235.5205552116463 metres,0.71,4.39,5.65,20.63,326.61,129.37,-2.32,-0.06,-0.31,0.04,0.5,104.56,0,0,0.11,-1.26,-162.76,109.44,behind,good,lost sight of enemy
30.39,enemy aircraft finished manoeuvre,2247.804548942089 metres,0.81,3.72,5.62,20.93,326.73,129.42,-2.37,-0.06,-0.28,0.03,0.5,104.12,0,0,0.11,-1.9,-162.69,108.61,behind,good,lost sight of enemy
30.5,enemy aircraft finished manoeuvre,2260.3382763344316 metres,0.9,3.14,5.59,21.17,326.91,129.48,-2.29,-0.07,-0.26,0.02,0.5,103.68,0,0,0.12,-2.44,-162.57,108.88,behind,good,lost sight of enemy
30.62,enemy aircraft finished manoeuvre,2272.67633927142 metres,0.98,2.69,5.56,21.37,327.13,129.53,-2.1,-0.08,-0.26,0.02,0.5,103.27,0,0,0.11,-2.87,-162.4,109.03,behind,good,lost sight of enemy
30.73,enemy aircraft finished manoeuvre,2285.284483783046 metres,1.05,2.3,5.53,21.57,327.39,129.59,-1.88,-0.09,-0.26,0.02,0.5,102.86,0,0,0.12,-3.23,-162.19,108.84,behind,might lose sight of enemy,lost sight of enemy
30.85,enemy aircraft finished manoeuvre,2297.713981588351 metres,1.12,1.93,5.51,21.77,327.66,129.64,-1.68,-0.1,-0.26,0.02,0.5,102.47,0,0,0.11,-3.58,-161.98,109.28,behind,might lose sight of enemy,lost sight of enemy
30.96,enemy aircraft finished manoeuvre,2310.136451290174 metres,1.18,1.55,5.48,21.96,327.93,129.69,-1.53,-0.1,-0.26,0.02,0.5,102.1,0,0,0.12,-3.94,-161.76,107.4,behind,might lose sight of enemy,lost sight of enemy
31.08,enemy aircraft finished manoeuvre,2322.8215128843444 metres,1.23,1.12,5.46,22.15,328.21,129.75,-1.43,-0.11,-0.26,0.02,0.5,101.75,0,0,0.12,-4.34,-161.54,107.43,behind,might lose sight of enemy,lost sight of enemy
31.19,enemy aircraft finished manoeuvre,2335.248665721911 metres,1.28,0.66,5.45,22.33,328.46,129.8,-1.39,-0.11,-0.26,0.02,0.5,101.42,0,0,0.11,-4.78,-161.34,108.27,behind,might lose sight of enemy,lost sight of enemy
31.3,enemy aircraft finished manoeuvre,2346.304779221777 metres,1.32,0.23,5.43,22.5,328.68,129.85,-1.38,-0.11,-0.26,0.02,0.5,101.14,0,0,0.1,-5.2,-161.17,106.59,behind,might lose sight of enemy,lost sight of enemy
31.41,enemy aircraft finished manoeuvre,2357.627560785076 metres,1.36,-0.25,5.42,22.67,328.9,129.9,-1.39,-0.11,-0.26,0.02,0.5,100.88,0,0,0.11,-5.66,-161.0,104.1,behind,might lose sight of enemy,lost sight of enemy
31.51,enemy aircraft finished manoeuvre,2369.164030218808 metres,1.39,-0.75,5.4,22.84,329.12,129.95,-1.42,-0.11,-0.26,0.02,0.5,100.62,0,0,0.11,-6.15,-160.84,107.92,behind,might lose sight of enemy,lost sight of enemy
31.62,enemy aircraft finished manoeuvre,2380.7641209646217 metres,1.42,-1.26,5.39,23.01,329.33,130.0,-1.45,-0.11,-0.26,0.02,0.5,100.37,0,0,0.11,-6.65,-160.67,106.44,behind,might lose sight of enemy,lost sight of enemy
31.73,enemy aircraft finished manoeuvre,2391.8338935052716 metres,1.44,-1.76,5.38,23.17,329.54,130.05,-1.47,-0.11,-0.26,0.02,0.5,100.15,0,0,0.11,-7.14,-160.51,103.99,behind,might lose sight of enemy,lost sight of enemy
31.84,enemy aircraft finished manoeuvre,2404.5205488067163 metres,1.46,-2.33,5.37,23.4,329.78,130.11,-1.49,-0.11,-0.26,0.08,0.5,99.92,0,0,0.11,-7.7,-160.32,111.01,behind,might lose sight of enemy,lost sight of enemy
31.94,enemy aircraft finished manoeuvre,2415.0649715867135 metres,1.48,-2.78,5.36,24.04,330.01,130.16,-1.46,-0.08,-0.24,0.34,0.5,99.74,0,0,0.1,-8.14,-160.14,105.34,behind,lost sight of enemy,lost sight of enemy
